[
  {
    "id": "2344354",
    "name": "长城",
    "city": "北京",
    "description": "xxxx",
    "image_name": "greatwall",
    "coordinates": {
      "longitude": 116.5704,
      "latitude": 40.4319
    }
  },
  {
    "id": "2344355",
    "name": "故宫",
    "city": "北京",
    "description": "xxxx",
    "image_name": "forbiddenpalace",
    "coordinates": {
      "longitude": 116.3975,
      "latitude": 39.9189
    }
  },
  {
    "id": "2344356",
    "name": "颐和园",
    "city": "北京",
    "description": "xxxx",
    "image_name": "summerpalace",
    "coordinates": {
      "longitude": 116.2755,
      "latitude": 39.9993
    }
  },
  {
    "id": "2344357",
    "name": "天安门",
    "city": "北京",
    "description": "xxxx",
    "image_name": "tiananmen",
    "coordinates": {
      "longitude": 116.3971,
      "latitude": 39.9087
    }
  },
  {
    "id": "2344358",
    "name": "兵马俑",
    "city": "西安",
    "description": "xxxx",
    "image_name": "terracottaarmy",
    "coordinates": {
      "longitude": 109.2738,
      "latitude": 34.3840
    }
  },
  {
    "id": "2344359",
    "name": "大雁塔",
    "city": "西安",
    "description": "xxxx",
    "image_name": "wildgoosepagoda",
    "coordinates": {
      "longitude": 108.9584,
      "latitude": 34.2220
    }
  },
  {
    "id": "2344360",
    "name": "西湖",
    "city": "杭州",
    "description": "xxxx",
    "image_name": "westlake",
    "coordinates": {
      "longitude": 120.1551,
      "latitude": 30.2741
    }
  },
  {
    "id": "2344361",
    "name": "黄山",
    "city": "黄山",
    "description": "xxxx",
    "image_name": "huangshan",
    "coordinates": {
      "longitude": 118.1740,
      "latitude": 29.7146
    }
  },
  {
    "id": "2344362",
    "name": "张家界",
    "city": "张家界",
    "description": "xxxx",
    "image_name": "zhangjiajie",
    "coordinates": {
      "longitude": 110.4790,
      "latitude": 29.1178
    }
  },
  {
    "id": "2344363",
    "name": "丽江古城",
    "city": "丽江",
    "description": "xxxx",
    "image_name": "lijiangoldtown",
    "coordinates": {
      "longitude": 100.2290,
      "latitude": 26.8563
    }
  },
  {
    "id": "2344364",
    "name": "九寨沟",
    "city": "九寨沟",
    "description": "xxxx",
    "image_name": "jiuzhaigou",
    "coordinates": {
      "longitude": 103.9190,
      "latitude": 33.2520
    }
  },
  {
    "id": "2344365",
    "name": "桂林山水",
    "city": "桂林",
    "description": "xxxx",
    "image_name": "guilin",
    "coordinates": {
      "longitude": 110.2991,
      "latitude": 25.2741
    }
  },
  {
    "id": "2344366",
    "name": "布达拉宫",
    "city": "拉萨",
    "description": "xxxx",
    "image_name": "potala",
    "coordinates": {
      "longitude": 91.1322,
      "latitude": 29.6604
    }
  },
  {
    "id": "2344367",
    "name": "三峡",
    "city": "宜昌",
    "description": "xxxx",
    "image_name": "threegorges",
    "coordinates": {
      "longitude": 111.2866,
      "latitude": 30.6919
    }
  },
  {
    "id": "2344368",
    "name": "苏州园林",
    "city": "苏州",
    "description": "xxxx",
    "image_name": "suzhougarden",
    "coordinates": {
      "longitude": 120.6196,
      "latitude": 31.2990
    }
  },
  {
    "id": "2344369",
    "name": "平遥古城",
    "city": "平遥",
    "description": "xxxx",
    "image_name": "pingyao",
    "coordinates": {
      "longitude": 112.1768,
      "latitude": 37.1973
    }
  },
  {
    "id": "2344370",
    "name": "鼓浪屿",
    "city": "厦门",
    "description": "xxxx",
    "image_name": "gulangyu",
    "coordinates": {
      "longitude": 118.0894,
      "latitude": 24.4459
    }
  },
  {
    "id": "2344371",
    "name": "大理古城",
    "city": "大理",
    "description": "xxxx",
    "image_name": "dalioldtown",
    "coordinates": {
      "longitude": 100.2230,
      "latitude": 25.5800
    }
  },
  {
    "id": "2344372",
    "name": "稻城亚丁",
    "city": "稻城",
    "description": "xxxx",
    "image_name": "daochengyading",
    "coordinates": {
      "longitude": 100.1223,
      "latitude": 29.3117
    }
  },
  {
    "id": "2344373",
    "name": "青岛栈桥",
    "city": "青岛",
    "description": "xxxx",
    "image_name": "qingdaozhanqiao",
    "coordinates": {
      "longitude": 120.3826,
      "latitude": 36.0671
    }
  },
  {
    "id": "2344374",
    "name": "大连星海广场",
    "city": "大连",
    "description": "xxxx",
    "image_name": "xinghaiguangchang",
    "coordinates": {
      "longitude": 121.6186,
      "latitude": 38.9140
    }
  },
  {
    "id": "2344375",
    "name": "上海外滩",
    "city": "上海",
    "description": "xxxx",
    "image_name": "bund",
    "coordinates": {
      "longitude": 121.4903,
      "latitude": 31.2222
    }
  },
  {
    "id": "2344376",
    "name": "南京中山陵",
    "city": "南京",
    "description": "xxxx",
    "image_name": "sunyatensmausoleum",
    "coordinates": {
      "longitude": 118.8477,
      "latitude": 32.0581
    }
  },
  {
    "id": "2344377",
    "name": "重庆解放碑",
    "city": "重庆",
    "description": "xxxx",
    "image_name": "jiefangbei",
    "coordinates": {
      "longitude": 106.5049,
      "latitude": 29.5653
    }
  },
  {
    "id": "2344378",
    "name": "深圳华侨城",
    "city": "深圳",
    "description": "xxxx",
    "image_name": "shenzhen_oct",
    "coordinates": {
      "longitude": 114.0646,
      "latitude": 22.5485
    }
  },
  {
    "id": "2344379",
    "name": "南普陀寺",
    "city": "厦门",
    "description": "xxxx",
    "image_name": "nanputuo",
    "coordinates": {
      "longitude": 118.0801,
      "latitude": 24.4890
    }
  },
  {
    "id": "2344380",
    "name": "哈尔滨冰雪大世界",
    "city": "哈尔滨",
    "description": "xxxx",
    "image_name": "harbin_ice",
    "coordinates": {
      "longitude": 126.6291,
      "latitude": 45.7560
    }
  },
  {
    "id": "2344381",
    "name": "天津古文化街",
    "city": "天津",
    "description": "xxxx",
    "image_name": "tianjinculture",
    "coordinates": {
      "longitude": 117.2108,
      "latitude": 39.1439
    }
  },
  {
    "id": "2344382",
    "name": "武汉黄鹤楼",
    "city": "武汉",
    "description": "xxxx",
    "image_name": "yellowcrane",
    "coordinates": {
      "longitude": 114.2992,
      "latitude": 30.5530
    }
  },
  {
    "id": "2344383",
    "name": "洛阳龙门石窟",
    "city": "洛阳",
    "description": "xxxx",
    "image_name": "longmen",
    "coordinates": {
      "longitude": 112.4708,
      "latitude": 34.6204
    }
  }
]
